{
  "type": "FeatureCollection",
  "features": [
    {
      "type": "Feature",
      "properties": {
        "propiedad": ""
      },
      "geometry": {
        "type": "Point",
        "coordinates": [
          -4.63348388671875,
          40.33817045213394
        ]
      }
    },
    {
      "type": "Feature",
      "properties": {
        "propiedad": ""
      },
      "geometry": {
        "type": "Point",
        "coordinates": [
          -4.34783935546875,
          40.48873742102282
        ]
      }
    },
    {
      "type": "Feature",
      "properties": {
        "propiedad": "propia",
        "otra": "yo que se"
      },
      "geometry": {
        "type": "Point",
        "coordinates": [
          -4.658203125,
          40.51797520038851
        ]
      }
    },
    {
      "type": "Feature",
      "properties": {
        "propiedad": ""
      },
      "geometry": {
        "type": "Point",
        "coordinates": [
          -4.19677734375,
          40.36956635131763
        ]
      }
    },
    {
      "type": "Feature",
      "properties": {},
      "geometry": {
        "type": "Point",
        "coordinates": [
          -4.51812744140625,
          40.48038142908172
        ]
      }
    },
    {
      "type": "Feature",
      "geometry": {
        "type": "Point",
        "coordinates": [
          -4.885486,
          40.529659,
          0
        ]
      },
      "properties": {
        "name": "Castro de Ulaca",
        "description": "<br>Source: Wikipedia article <a href=\"http://es.wikipedia.org/wiki/Anexo:Bienes_de_interés_cultural_de_la_provincia_de_Ávila#Bienes_comunes_a_varios_municipios\">Anexo:Bienes de interés cultural de la provincia de Ávila</a>"
      }
    },
    {
      "type": "Feature",
      "geometry": {
        "type": "Point",
        "coordinates": [
          -4.603958,
          40.944222,
          0
        ]
      },
      "properties": {
        "name": "Iglesia Parroquial de Nuestra Señora de la Asunción (Adanero)",
        "description": "<br>Source: Wikipedia article <a href=\"http://es.wikipedia.org/wiki/Anexo:Bienes_de_interés_cultural_de_la_provincia_de_Ávila#Adanero\">Anexo:Bienes de interés cultural de la provincia de Ávila</a>"
      }
    },
    {
      "type": "Feature",
      "geometry": {
        "type": "Point",
        "coordinates": [
          -5.42053,
          40.38145,
          0
        ]
      },
      "properties": {
        "name": "Antiguo Convento de las Monjas",
        "description": "<br>Source: Wikipedia article <a href=\"http://es.wikipedia.org/wiki/Anexo:Bienes_de_interés_cultural_de_la_provincia_de_Ávila#Aldeanueva_de_Santa_Cruz\">Anexo:Bienes de interés cultural de la provincia de Ávila</a>"
      }
    },
    {
      "type": "Feature",
      "geometry": {
        "type": "Point",
        "coordinates": [
          -5.091863,
          40.209901,
          0
        ]
      },
      "properties": {
        "name": "Castillo de Arenas de San Pedro ''Castillo de la Triste Condesa''",
        "description": "<br>Source: Wikipedia article <a href=\"http://es.wikipedia.org/wiki/Anexo:Bienes_de_interés_cultural_de_la_provincia_de_Ávila#Arenas_de_San_Pedro\">Anexo:Bienes de interés cultural de la provincia de Ávila</a>"
      }
    },
    {
      "type": "Feature",
      "geometry": {
        "type": "Point",
        "coordinates": [
          -5.077511,
          40.231517,
          0
        ]
      },
      "properties": {
        "name": "Capilla Real de San Pedro de Alcántara",
        "description": "<br>Source: Wikipedia article <a href=\"http://es.wikipedia.org/wiki/Anexo:Bienes_de_interés_cultural_de_la_provincia_de_Ávila#Arenas_de_San_Pedro\">Anexo:Bienes de interés cultural de la provincia de Ávila</a>"
      }
    },
    {
      "type": "Feature",
      "geometry": {
        "type": "Point",
        "coordinates": [
          -4.72307,
          41.067316,
          0
        ]
      },
      "properties": {
        "name": "Puente de Medina",
        "description": "<br>Source: Wikipedia article <a href=\"http://es.wikipedia.org/wiki/Anexo:Bienes_de_interés_cultural_de_la_provincia_de_Ávila#Ar.C3.A9valo\">Anexo:Bienes de interés cultural de la provincia de Ávila</a>"
      }
    },
    {
      "type": "Feature",
      "geometry": {
        "type": "Point",
        "coordinates": [
          -4.718843,
          41.065536,
          0
        ]
      },
      "properties": {
        "name": "Iglesia de San Martín (Arévalo)",
        "description": "<br>Source: Wikipedia article <a href=\"http://es.wikipedia.org/wiki/Anexo:Bienes_de_interés_cultural_de_la_provincia_de_Ávila#Ar.C3.A9valo\">Anexo:Bienes de interés cultural de la provincia de Ávila</a>"
      }
    },
    {
      "type": "Feature",
      "geometry": {
        "type": "Point",
        "coordinates": [
          -4.726825,
          41.048169,
          0
        ]
      },
      "properties": {
        "name": "Iglesia de Santa María (La Lugareja)",
        "description": "<br>Source: Wikipedia article <a href=\"http://es.wikipedia.org/wiki/Anexo:Bienes_de_interés_cultural_de_la_provincia_de_Ávila#Ar.C3.A9valo\">Anexo:Bienes de interés cultural de la provincia de Ávila</a>"
      }
    },
    {
      "type": "Feature",
      "geometry": {
        "type": "Point",
        "coordinates": [
          -4.719121,
          41.064598,
          0
        ]
      },
      "properties": {
        "name": "Iglesia de Santa María la Mayor",
        "description": "<br>Source: Wikipedia article <a href=\"http://es.wikipedia.org/wiki/Anexo:Bienes_de_interés_cultural_de_la_provincia_de_Ávila#Ar.C3.A9valo\">Anexo:Bienes de interés cultural de la provincia de Ávila</a>"
      }
    },
    {
      "type": "Feature",
      "geometry": {
        "type": "Point",
        "coordinates": [
          -4.721804,
          41.065472,
          0
        ]
      },
      "properties": {
        "name": "Iglesia de San Miguel (Arévalo)",
        "description": "<br>Source: Wikipedia article <a href=\"http://es.wikipedia.org/wiki/Anexo:Bienes_de_interés_cultural_de_la_provincia_de_Ávila#Ar.C3.A9valo\">Anexo:Bienes de interés cultural de la provincia de Ávila</a>"
      }
    },
    {
      "type": "Feature",
      "geometry": {
        "type": "Point",
        "coordinates": [
          -4.720527,
          41.064679,
          0
        ]
      },
      "properties": {
        "name": "Conjunto Histórico de Arévalo",
        "description": "<br>Source: Wikipedia article <a href=\"http://es.wikipedia.org/wiki/Anexo:Bienes_de_interés_cultural_de_la_provincia_de_Ávila#Ar.C3.A9valo\">Anexo:Bienes de interés cultural de la provincia de Ávila</a>"
      }
    },
    {
      "type": "Feature",
      "geometry": {
        "type": "Point",
        "coordinates": [
          -4.698966,
          40.658087,
          0
        ]
      },
      "properties": {
        "name": "Palacio de Santa Cruz o de Bracamonte",
        "description": "<br>Source: Wikipedia article <a href=\"http://es.wikipedia.org/wiki/Anexo:Bienes_de_interés_cultural_de_la_provincia_de_Ávila#.C3.81vila\">Anexo:Bienes de interés cultural de la provincia de Ávila</a>"
      }
    },
    {
      "type": "Feature",
      "geometry": {
        "type": "Point",
        "coordinates": [
          -4.698005,
          40.657288,
          0
        ]
      },
      "properties": {
        "name": "Palacio de los Verdugo",
        "description": "<br>Source: Wikipedia article <a href=\"http://es.wikipedia.org/wiki/Anexo:Bienes_de_interés_cultural_de_la_provincia_de_Ávila#.C3.81vila\">Anexo:Bienes de interés cultural de la provincia de Ávila</a>"
      }
    },
    {
      "type": "Feature",
      "geometry": {
        "type": "Point",
        "coordinates": [
          -4.702401,
          40.651774,
          0
        ]
      },
      "properties": {
        "name": "Iglesia de San Nicolás de Bari",
        "description": "<br>Source: Wikipedia article <a href=\"http://es.wikipedia.org/wiki/Anexo:Bienes_de_interés_cultural_de_la_provincia_de_Ávila#.C3.81vila\">Anexo:Bienes de interés cultural de la provincia de Ávila</a>"
      }
    },
    {
      "type": "Feature",
      "geometry": {
        "type": "Point",
        "coordinates": [
          -4.69016,
          40.656254,
          0
        ]
      },
      "properties": {
        "name": "Real Monasterio de Santa Ana",
        "description": "<br>Source: Wikipedia article <a href=\"http://es.wikipedia.org/wiki/Anexo:Bienes_de_interés_cultural_de_la_provincia_de_Ávila#.C3.81vila\">Anexo:Bienes de interés cultural de la provincia de Ávila</a>"
      }
    },
    {
      "type": "Feature",
      "geometry": {
        "type": "Point",
        "coordinates": [
          -4.700523,
          40.654825,
          0
        ]
      },
      "properties": {
        "name": "Palacio de los Abrantes ''Palacio de los Dávila''",
        "description": "<br>Source: Wikipedia article <a href=\"http://es.wikipedia.org/wiki/Anexo:Bienes_de_interés_cultural_de_la_provincia_de_Ávila#.C3.81vila\">Anexo:Bienes de interés cultural de la provincia de Ávila</a>"
      }
    },
    {
      "type": "Feature",
      "geometry": {
        "type": "Point",
        "coordinates": [
          -4.700353,
          40.656462,
          0
        ]
      },
      "properties": {
        "name": "Conjunto Histórico Artístico de la Ciudad de Avila",
        "description": "<br>Source: Wikipedia article <a href=\"http://es.wikipedia.org/wiki/Anexo:Bienes_de_interés_cultural_de_la_provincia_de_Ávila#.C3.81vila\">Anexo:Bienes de interés cultural de la provincia de Ávila</a>"
      }
    },
    {
      "type": "Feature",
      "geometry": {
        "type": "Point",
        "coordinates": [
          -4.703259,
          40.65828,
          0
        ]
      },
      "properties": {
        "name": "Edificio del Archivo Histórico Provincial",
        "description": "<br>Source: Wikipedia article <a href=\"http://es.wikipedia.org/wiki/Anexo:Bienes_de_interés_cultural_de_la_provincia_de_Ávila#.C3.81vila\">Anexo:Bienes de interés cultural de la provincia de Ávila</a>"
      }
    },
    {
      "type": "Feature",
      "geometry": {
        "type": "Point",
        "coordinates": [
          -4.700526,
          40.656073,
          0
        ]
      },
      "properties": {
        "name": "Entorno de Protección de la Iglesia Parroquial de San Juan",
        "description": "<br>Source: Wikipedia article <a href=\"http://es.wikipedia.org/wiki/Anexo:Bienes_de_interés_cultural_de_la_provincia_de_Ávila#.C3.81vila\">Anexo:Bienes de interés cultural de la provincia de Ávila</a>"
      }
    },
    {
      "type": "Feature",
      "geometry": {
        "type": "Point",
        "coordinates": [
          -4.602876,
          40.67265,
          0
        ]
      },
      "properties": {
        "name": "Yacimiento Arqueológico Dolmen del Prado de las Cruces",
        "description": "<br>Source: Wikipedia article <a href=\"http://es.wikipedia.org/wiki/Anexo:Bienes_de_interés_cultural_de_la_provincia_de_Ávila#.C3.81vila\">Anexo:Bienes de interés cultural de la provincia de Ávila</a>"
      }
    },
    {
      "type": "Feature",
      "geometry": {
        "type": "Point",
        "coordinates": [
          -4.699274,
          40.65265,
          0
        ]
      },
      "properties": {
        "name": "Iglesia Parroquial de Santiago (Ávila)",
        "description": "<br>Source: Wikipedia article <a href=\"http://es.wikipedia.org/wiki/Anexo:Bienes_de_interés_cultural_de_la_provincia_de_Ávila#.C3.81vila\">Anexo:Bienes de interés cultural de la provincia de Ávila</a>"
      }
    },
    {
      "type": "Feature",
      "geometry": {
        "type": "Point",
        "coordinates": [
          -4.708216,
          40.657943,
          0
        ]
      },
      "properties": {
        "name": "Antiguas Tenerías del Arrabal de San Segundo",
        "description": "<br>Source: Wikipedia article <a href=\"http://es.wikipedia.org/wiki/Anexo:Bienes_de_interés_cultural_de_la_provincia_de_Ávila#.C3.81vila\">Anexo:Bienes de interés cultural de la provincia de Ávila</a>"
      }
    },
    {
      "type": "Feature",
      "geometry": {
        "type": "Point",
        "coordinates": [
          -4.701499,
          40.655378,
          0
        ]
      },
      "properties": {
        "name": "Torreón de los Guzmanes ''Torreón de los Muxicas, de Oñate y Crescende''",
        "description": "<br>Source: Wikipedia article <a href=\"http://es.wikipedia.org/wiki/Anexo:Bienes_de_interés_cultural_de_la_provincia_de_Ávila#.C3.81vila\">Anexo:Bienes de interés cultural de la provincia de Ávila</a>"
      }
    },
    {
      "type": "Feature",
      "geometry": {
        "type": "Point",
        "coordinates": [
          -4.70092,
          40.660067,
          0
        ]
      },
      "properties": {
        "name": "Ermita de San Martín",
        "description": "<br>Source: Wikipedia article <a href=\"http://es.wikipedia.org/wiki/Anexo:Bienes_de_interés_cultural_de_la_provincia_de_Ávila#.C3.81vila\">Anexo:Bienes de interés cultural de la provincia de Ávila</a>"
      }
    },
    {
      "type": "Feature",
      "geometry": {
        "type": "Point",
        "coordinates": [
          -4.699305,
          40.662882,
          0
        ]
      },
      "properties": {
        "name": "Delimitación de entorno de protección del Monasterio de la Encarnación",
        "description": "<br>Source: Wikipedia article <a href=\"http://es.wikipedia.org/wiki/Anexo:Bienes_de_interés_cultural_de_la_provincia_de_Ávila#.C3.81vila\">Anexo:Bienes de interés cultural de la provincia de Ávila</a>"
      }
    },
    {
      "type": "Feature",
      "geometry": {
        "type": "Point",
        "coordinates": [
          -4.69952,
          40.662581,
          0
        ]
      },
      "properties": {
        "name": "Monasterio de la Encarnación (Delimitación de Entorno 30/07/1998)",
        "description": "<br>Source: Wikipedia article <a href=\"http://es.wikipedia.org/wiki/Anexo:Bienes_de_interés_cultural_de_la_provincia_de_Ávila#.C3.81vila\">Anexo:Bienes de interés cultural de la provincia de Ávila</a>"
      }
    },
    {
      "type": "Feature",
      "geometry": {
        "type": "Point",
        "coordinates": [
          -4.69599,
          40.658007,
          0
        ]
      },
      "properties": {
        "name": "Iglesia de los Santos Mártires Vicente, Sabina y Cristeta",
        "description": "<br>Source: Wikipedia article <a href=\"http://es.wikipedia.org/wiki/Anexo:Bienes_de_interés_cultural_de_la_provincia_de_Ávila#.C3.81vila\">Anexo:Bienes de interés cultural de la provincia de Ávila</a>"
      }
    },
    {
      "type": "Feature",
      "geometry": {
        "type": "Point",
        "coordinates": [
          -4.704788,
          40.658748,
          0
        ]
      },
      "properties": {
        "name": "Las Murallas de Ávila",
        "description": "<br>Source: Wikipedia article <a href=\"http://es.wikipedia.org/wiki/Anexo:Bienes_de_interés_cultural_de_la_provincia_de_Ávila#.C3.81vila\">Anexo:Bienes de interés cultural de la provincia de Ávila</a>"
      }
    },
    {
      "type": "Feature",
      "geometry": {
        "type": "Point",
        "coordinates": [
          -4.702712,
          40.655419,
          0
        ]
      },
      "properties": {
        "name": "Iglesia-convento de Santa Teresa",
        "description": "<br>Source: Wikipedia article <a href=\"http://es.wikipedia.org/wiki/Anexo:Bienes_de_interés_cultural_de_la_provincia_de_Ávila#.C3.81vila\">Anexo:Bienes de interés cultural de la provincia de Ávila</a>"
      }
    },
    {
      "type": "Feature",
      "geometry": {
        "type": "Point",
        "coordinates": [
          -4.695282,
          40.65419,
          0
        ]
      },
      "properties": {
        "name": "Iglesia de San Pedro (Ávila)",
        "description": "<br>Source: Wikipedia article <a href=\"http://es.wikipedia.org/wiki/Anexo:Bienes_de_interés_cultural_de_la_provincia_de_Ávila#.C3.81vila\">Anexo:Bienes de interés cultural de la provincia de Ávila</a>"
      }
    },
    {
      "type": "Feature",
      "geometry": {
        "type": "Point",
        "coordinates": [
          -4.697138,
          40.655802,
          0
        ]
      },
      "properties": {
        "name": "Catedral del Salvador (Ávila)",
        "description": "<br>Source: Wikipedia article <a href=\"http://es.wikipedia.org/wiki/Anexo:Bienes_de_interés_cultural_de_la_provincia_de_Ávila#.C3.81vila\">Anexo:Bienes de interés cultural de la provincia de Ávila</a>"
      }
    },
    {
      "type": "Feature",
      "geometry": {
        "type": "Point",
        "coordinates": [
          -4.707588,
          40.658878,
          0
        ]
      },
      "properties": {
        "name": "Ermita de San Segundo del Río Adaja",
        "description": "<br>Source: Wikipedia article <a href=\"http://es.wikipedia.org/wiki/Anexo:Bienes_de_interés_cultural_de_la_provincia_de_Ávila#.C3.81vila\">Anexo:Bienes de interés cultural de la provincia de Ávila</a>"
      }
    },
    {
      "type": "Feature",
      "geometry": {
        "type": "Point",
        "coordinates": [
          -4.695373,
          40.659472,
          0
        ]
      },
      "properties": {
        "name": "Iglesia de San Andrés (Ávila)",
        "description": "<br>Source: Wikipedia article <a href=\"http://es.wikipedia.org/wiki/Anexo:Bienes_de_interés_cultural_de_la_provincia_de_Ávila#.C3.81vila\">Anexo:Bienes de interés cultural de la provincia de Ávila</a>"
      }
    },
    {
      "type": "Feature",
      "geometry": {
        "type": "Point",
        "coordinates": [
          -4.68513,
          40.655371,
          0
        ]
      },
      "properties": {
        "name": "Restos de la Iglesia de Santo Domingo",
        "description": "<br>Source: Wikipedia article <a href=\"http://es.wikipedia.org/wiki/Anexo:Bienes_de_interés_cultural_de_la_provincia_de_Ávila#.C3.81vila\">Anexo:Bienes de interés cultural de la provincia de Ávila</a>"
      }
    },
    {
      "type": "Feature",
      "geometry": {
        "type": "Point",
        "coordinates": [
          -4.703264,
          40.655183,
          0
        ]
      },
      "properties": {
        "name": "Palacio del Virrey Blasco Nuñez Vela",
        "description": "<br>Source: Wikipedia article <a href=\"http://es.wikipedia.org/wiki/Anexo:Bienes_de_interés_cultural_de_la_provincia_de_Ávila#.C3.81vila\">Anexo:Bienes de interés cultural de la provincia de Ávila</a>"
      }
    },
    {
      "type": "Feature",
      "geometry": {
        "type": "Point",
        "coordinates": [
          -4.688888,
          40.650381,
          0
        ]
      },
      "properties": {
        "name": "Convento de Santo Tomás",
        "description": "<br>Source: Wikipedia article <a href=\"http://es.wikipedia.org/wiki/Anexo:Bienes_de_interés_cultural_de_la_provincia_de_Ávila#.C3.81vila\">Anexo:Bienes de interés cultural de la provincia de Ávila</a>"
      }
    },
    {
      "type": "Feature",
      "geometry": {
        "type": "Point",
        "coordinates": [
          -4.69236,
          40.66016,
          0
        ]
      },
      "properties": {
        "name": "Convento de San Francisco (Ávila)",
        "description": "<br>Source: Wikipedia article <a href=\"http://es.wikipedia.org/wiki/Anexo:Bienes_de_interés_cultural_de_la_provincia_de_Ávila#.C3.81vila\">Anexo:Bienes de interés cultural de la provincia de Ávila</a>"
      }
    },
    {
      "type": "Feature",
      "geometry": {
        "type": "Point",
        "coordinates": [
          -4.689462,
          40.654594,
          0
        ]
      },
      "properties": {
        "name": "Convento de las Madres Clarisas ''Las Gordillas''",
        "description": "<br>Source: Wikipedia article <a href=\"http://es.wikipedia.org/wiki/Anexo:Bienes_de_interés_cultural_de_la_provincia_de_Ávila#.C3.81vila\">Anexo:Bienes de interés cultural de la provincia de Ávila</a>"
      }
    },
    {
      "type": "Feature",
      "geometry": {
        "type": "Point",
        "coordinates": [
          -4.695873,
          40.656376,
          0
        ]
      },
      "properties": {
        "name": "Museo Provincial de Bellas Artes o \"Palacio Deanes\"",
        "description": "<br>Source: Wikipedia article <a href=\"http://es.wikipedia.org/wiki/Anexo:Bienes_de_interés_cultural_de_la_provincia_de_Ávila#.C3.81vila\">Anexo:Bienes de interés cultural de la provincia de Ávila</a>"
      }
    },
    {
      "type": "Feature",
      "geometry": {
        "type": "Point",
        "coordinates": [
          -4.695645,
          40.656026,
          0
        ]
      },
      "properties": {
        "name": "Iglesia de Santo Tomé El Viejo",
        "description": "<br>Source: Wikipedia article <a href=\"http://es.wikipedia.org/wiki/Anexo:Bienes_de_interés_cultural_de_la_provincia_de_Ávila#.C3.81vila\">Anexo:Bienes de interés cultural de la provincia de Ávila</a>"
      }
    },
    {
      "type": "Feature",
      "geometry": {
        "type": "Point",
        "coordinates": [
          -4.692214,
          40.655241,
          0
        ]
      },
      "properties": {
        "name": "Convento de San José o \"Convento de las Madres\"",
        "description": "<br>Source: Wikipedia article <a href=\"http://es.wikipedia.org/wiki/Anexo:Bienes_de_interés_cultural_de_la_provincia_de_Ávila#.C3.81vila\">Anexo:Bienes de interés cultural de la provincia de Ávila</a>"
      }
    },
    {
      "type": "Feature",
      "geometry": {
        "type": "Point",
        "coordinates": [
          -4.699922,
          40.657722,
          0
        ]
      },
      "properties": {
        "name": "Capilla de Mosén Rubí",
        "description": "<br>Source: Wikipedia article <a href=\"http://es.wikipedia.org/wiki/Anexo:Bienes_de_interés_cultural_de_la_provincia_de_Ávila#.C3.81vila\">Anexo:Bienes de interés cultural de la provincia de Ávila</a>"
      }
    },
    {
      "type": "Feature",
      "geometry": {
        "type": "Point",
        "coordinates": [
          -4.69867,
          40.657387,
          0
        ]
      },
      "properties": {
        "name": "Palacio de los Águila, \"Palacio de Torres Arias\" o \"Palacio de los Duques de Valencia\"",
        "description": "<br>Source: Wikipedia article <a href=\"http://es.wikipedia.org/wiki/Anexo:Bienes_de_interés_cultural_de_la_provincia_de_Ávila#.C3.81vila\">Anexo:Bienes de interés cultural de la provincia de Ávila</a>"
      }
    },
    {
      "type": "Feature",
      "geometry": {
        "type": "Point",
        "coordinates": [
          -4.702881,
          40.656767,
          0
        ]
      },
      "properties": {
        "name": "Palacio de Polentinos",
        "description": "<br>Source: Wikipedia article <a href=\"http://es.wikipedia.org/wiki/Anexo:Bienes_de_interés_cultural_de_la_provincia_de_Ávila#.C3.81vila\">Anexo:Bienes de interés cultural de la provincia de Ávila</a>"
      }
    },
    {
      "type": "Feature",
      "geometry": {
        "type": "Point",
        "coordinates": [
          -4.69349,
          40.652623,
          0
        ]
      },
      "properties": {
        "name": "Ermita de Nuestra Señora de las Vacas",
        "description": "<br>Source: Wikipedia article <a href=\"http://es.wikipedia.org/wiki/Anexo:Bienes_de_interés_cultural_de_la_provincia_de_Ávila#.C3.81vila\">Anexo:Bienes de interés cultural de la provincia de Ávila</a>"
      }
    },
    {
      "type": "Feature",
      "geometry": {
        "type": "Point",
        "coordinates": [
          -4.698098,
          40.656355,
          0
        ]
      },
      "properties": {
        "name": "Mansión de los Velada ''Torreón de los Aboín''",
        "description": "<br>Source: Wikipedia article <a href=\"http://es.wikipedia.org/wiki/Anexo:Bienes_de_interés_cultural_de_la_provincia_de_Ávila#.C3.81vila\">Anexo:Bienes de interés cultural de la provincia de Ávila</a>"
      }
    },
    {
      "type": "Feature",
      "geometry": {
        "type": "Point",
        "coordinates": [
          -4.697037,
          40.656556,
          0
        ]
      },
      "properties": {
        "name": "Edificio del Episcopio, \"Antiguo Palacio Viejo, Palacio Episcopal o Palacio del Rey Niño\"",
        "description": "<br>Source: Wikipedia article <a href=\"http://es.wikipedia.org/wiki/Anexo:Bienes_de_interés_cultural_de_la_provincia_de_Ávila#.C3.81vila\">Anexo:Bienes de interés cultural de la provincia de Ávila</a>"
      }
    },
    {
      "type": "Feature",
      "geometry": {
        "type": "Point",
        "coordinates": [
          -4.701794,
          40.654941,
          0
        ]
      },
      "properties": {
        "name": "Palacio de los Superunda",
        "description": "<br>Source: Wikipedia article <a href=\"http://es.wikipedia.org/wiki/Anexo:Bienes_de_interés_cultural_de_la_provincia_de_Ávila#.C3.81vila\">Anexo:Bienes de interés cultural de la provincia de Ávila</a>"
      }
    },
    {
      "type": "Feature",
      "geometry": {
        "type": "Point",
        "coordinates": [
          -4.702138,
          40.655102,
          0
        ]
      },
      "properties": {
        "name": "Palacio de los Almarza",
        "description": "<br>Source: Wikipedia article <a href=\"http://es.wikipedia.org/wiki/Anexo:Bienes_de_interés_cultural_de_la_provincia_de_Ávila#.C3.81vila\">Anexo:Bienes de interés cultural de la provincia de Ávila</a>"
      }
    },
    {
      "type": "Feature",
      "geometry": {
        "type": "Point",
        "coordinates": [
          -5.634248,
          40.404771,
          0
        ]
      },
      "properties": {
        "name": "Iglesia Parroquial de la Inmaculada Concepción (Becedas)",
        "description": "<br>Source: Wikipedia article <a href=\"http://es.wikipedia.org/wiki/Anexo:Bienes_de_interés_cultural_de_la_provincia_de_Ávila#Becedas\">Anexo:Bienes de interés cultural de la provincia de Ávila</a>"
      }
    },
    {
      "type": "Feature",
      "geometry": {
        "type": "Point",
        "coordinates": [
          -5.265026,
          40.530975,
          0
        ]
      },
      "properties": {
        "name": "Iglesia de San Martín (Bonilla de la Sierra)",
        "description": "<br>Source: Wikipedia article <a href=\"http://es.wikipedia.org/wiki/Anexo:Bienes_de_interés_cultural_de_la_provincia_de_Ávila#Bonilla_de_la_Sierra\">Anexo:Bienes de interés cultural de la provincia de Ávila</a>"
      }
    },
    {
      "type": "Feature",
      "geometry": {
        "type": "Point",
        "coordinates": [
          -5.264533,
          40.530437,
          0
        ]
      },
      "properties": {
        "name": "Conjunto Histórico Artístico de la Villa de Bonilla de la Sierra",
        "description": "<br>Source: Wikipedia article <a href=\"http://es.wikipedia.org/wiki/Anexo:Bienes_de_interés_cultural_de_la_provincia_de_Ávila#Bonilla_de_la_Sierra\">Anexo:Bienes de interés cultural de la provincia de Ávila</a>"
      }
    },
    {
      "type": "Feature",
      "geometry": {
        "type": "Point",
        "coordinates": [
          -4.785876,
          40.416036,
          0
        ]
      },
      "properties": {
        "name": "Abadía Iglesia de Nuestra Señora de la Asunción",
        "description": "<br>Source: Wikipedia article <a href=\"http://es.wikipedia.org/wiki/Anexo:Bienes_de_interés_cultural_de_la_provincia_de_Ávila#Burgohondo\">Anexo:Bienes de interés cultural de la provincia de Ávila</a>"
      }
    },
    {
      "type": "Feature",
      "geometry": {
        "type": "Point",
        "coordinates": [
          -5.211738,
          40.716234,
          0
        ]
      },
      "properties": {
        "name": "Iglesia Parroquial",
        "description": "<br>Source: Wikipedia article <a href=\"http://es.wikipedia.org/wiki/Anexo:Bienes_de_interés_cultural_de_la_provincia_de_Ávila#Cabezas_del_Villar\">Anexo:Bienes de interés cultural de la provincia de Ávila</a>"
      }
    },
    {
      "type": "Feature",
      "geometry": {
        "type": "Point",
        "coordinates": [
          -5.242113,
          40.154397,
          0
        ]
      },
      "properties": {
        "name": "Iglesia de Nuestra Señora de la Asunción (Candeleda)",
        "description": "<br>Source: Wikipedia article <a href=\"http://es.wikipedia.org/wiki/Anexo:Bienes_de_interés_cultural_de_la_provincia_de_Ávila#Candeleda\">Anexo:Bienes de interés cultural de la provincia de Ávila</a>"
      }
    },
    {
      "type": "Feature",
      "geometry": {
        "type": "Point",
        "coordinates": [
          -5.357972,
          40.182696,
          0
        ]
      },
      "properties": {
        "name": "Castro del Raso",
        "description": "<br>Source: Wikipedia article <a href=\"http://es.wikipedia.org/wiki/Anexo:Bienes_de_interés_cultural_de_la_provincia_de_Ávila#Candeleda\">Anexo:Bienes de interés cultural de la provincia de Ávila</a>"
      }
    },
    {
      "type": "Feature",
      "geometry": {
        "type": "Point",
        "coordinates": [
          -4.701076,
          40.727927,
          0
        ]
      },
      "properties": {
        "name": "Despoblado de las Cogotas",
        "description": "<br>Source: Wikipedia article <a href=\"http://es.wikipedia.org/wiki/Anexo:Bienes_de_interés_cultural_de_la_provincia_de_Ávila#Carde.C3.B1osa\">Anexo:Bienes de interés cultural de la provincia de Ávila</a>"
      }
    },
    {
      "type": "Feature",
      "geometry": {
        "type": "Point",
        "coordinates": [
          -4.463886,
          40.455165,
          0
        ]
      },
      "properties": {
        "name": "Iglesia Parroquial de Santiago (Cebreros)",
        "description": "<br>Source: Wikipedia article <a href=\"http://es.wikipedia.org/wiki/Anexo:Bienes_de_interés_cultural_de_la_provincia_de_Ávila#Cebreros\">Anexo:Bienes de interés cultural de la provincia de Ávila</a>"
      }
    },
    {
      "type": "Feature",
      "geometry": {
        "type": "Point",
        "coordinates": [
          -4.353021,
          40.457152,
          0
        ]
      },
      "properties": {
        "name": "Finca \"El Quexigal\"",
        "description": "<br>Source: Wikipedia article <a href=\"http://es.wikipedia.org/wiki/Anexo:Bienes_de_interés_cultural_de_la_provincia_de_Ávila#Cebreros\">Anexo:Bienes de interés cultural de la provincia de Ávila</a>"
      }
    },
    {
      "type": "Feature",
      "geometry": {
        "type": "Point",
        "coordinates": [
          -4.946359,
          40.720751,
          0
        ]
      },
      "properties": {
        "name": "Castro de la Mesa de Miranda",
        "description": "<br>Source: Wikipedia article <a href=\"http://es.wikipedia.org/wiki/Anexo:Bienes_de_interés_cultural_de_la_provincia_de_Ávila#Chamart.C3.ADn\">Anexo:Bienes de interés cultural de la provincia de Ávila</a>"
      }
    },
    {
      "type": "Feature",
      "geometry": {
        "type": "Point",
        "coordinates": [
          -5.523521,
          40.357113,
          0
        ]
      },
      "properties": {
        "name": "Iglesia Mayor de la Asunción de Nuestra Señora",
        "description": "<br>Source: Wikipedia article <a href=\"http://es.wikipedia.org/wiki/Anexo:Bienes_de_interés_cultural_de_la_provincia_de_Ávila#El_Barco_de_.C3.81vila\">Anexo:Bienes de interés cultural de la provincia de Ávila</a>"
      }
    },
    {
      "type": "Feature",
      "geometry": {
        "type": "Point",
        "coordinates": [
          -5.525269,
          40.358902,
          0
        ]
      },
      "properties": {
        "name": "Castillo de El Barco de Ávila",
        "description": "<br>Source: Wikipedia article <a href=\"http://es.wikipedia.org/wiki/Anexo:Bienes_de_interés_cultural_de_la_provincia_de_Ávila#El_Barco_de_.C3.81vila\">Anexo:Bienes de interés cultural de la provincia de Ávila</a>"
      }
    },
    {
      "type": "Feature",
      "geometry": {
        "type": "Point",
        "coordinates": [
          -4.441665,
          40.360642,
          0
        ]
      },
      "properties": {
        "name": "Toros de Guisando, terreno que ocupan",
        "description": "<br>Source: Wikipedia article <a href=\"http://es.wikipedia.org/wiki/Anexo:Bienes_de_interés_cultural_de_la_provincia_de_Ávila#El_Tiemblo\">Anexo:Bienes de interés cultural de la provincia de Ávila</a>"
      }
    },
    {
      "type": "Feature",
      "geometry": {
        "type": "Point",
        "coordinates": [
          -4.455625,
          40.36156,
          0
        ]
      },
      "properties": {
        "name": "Monasterio San Jerónimo de Guisando con Jardínes, Ermita y Cueva",
        "description": "<br>Source: Wikipedia article <a href=\"http://es.wikipedia.org/wiki/Anexo:Bienes_de_interés_cultural_de_la_provincia_de_Ávila#El_Tiemblo\">Anexo:Bienes de interés cultural de la provincia de Ávila</a>"
      }
    },
    {
      "type": "Feature",
      "geometry": {
        "type": "Point",
        "coordinates": [
          -4.967592,
          40.93028,
          0
        ]
      },
      "properties": {
        "name": "Iglesia Parroquial de Fontiveros",
        "description": "<br>Source: Wikipedia article <a href=\"http://es.wikipedia.org/wiki/Anexo:Bienes_de_interés_cultural_de_la_provincia_de_Ávila#Fontiveros\">Anexo:Bienes de interés cultural de la provincia de Ávila</a>"
      }
    },
    {
      "type": "Feature",
      "geometry": {
        "type": "Point",
        "coordinates": [
          -4.909017,
          40.97755,
          0
        ]
      },
      "properties": {
        "name": "Iglesia de la Asunción de Nuestra Señora (Fuente el Sauz)",
        "description": "<br>Source: Wikipedia article <a href=\"http://es.wikipedia.org/wiki/Anexo:Bienes_de_interés_cultural_de_la_provincia_de_Ávila#Fuente_el_Sauz\">Anexo:Bienes de interés cultural de la provincia de Ávila</a>"
      }
    },
    {
      "type": "Feature",
      "geometry": {
        "type": "Point",
        "coordinates": [
          -5.140443,
          40.222511,
          0
        ]
      },
      "properties": {
        "name": "Conjunto Histórico Artístico de la Villa de Guisando y su Entorno",
        "description": "<br>Source: Wikipedia article <a href=\"http://es.wikipedia.org/wiki/Anexo:Bienes_de_interés_cultural_de_la_provincia_de_Ávila#Guisando\">Anexo:Bienes de interés cultural de la provincia de Ávila</a>"
      }
    },
    {
      "type": "Feature",
      "geometry": {
        "type": "Point",
        "coordinates": [
          -4.331256,
          40.603206,
          0
        ]
      },
      "properties": {
        "name": "Convento de San Pablo (Las Navas del Marqués)",
        "description": "<br>Source: Wikipedia article <a href=\"http://es.wikipedia.org/wiki/Anexo:Bienes_de_interés_cultural_de_la_provincia_de_Ávila#Las_Navas_del_Marqu.C3.A9s\">Anexo:Bienes de interés cultural de la provincia de Ávila</a>"
      }
    },
    {
      "type": "Feature",
      "geometry": {
        "type": "Point",
        "coordinates": [
          -4.325613,
          40.603646,
          0
        ]
      },
      "properties": {
        "name": "Castillo-palacio (Palacio de Magalia) ''Isabel la Católica''",
        "description": "<br>Source: Wikipedia article <a href=\"http://es.wikipedia.org/wiki/Anexo:Bienes_de_interés_cultural_de_la_provincia_de_Ávila#Las_Navas_del_Marqu.C3.A9s\">Anexo:Bienes de interés cultural de la provincia de Ávila</a>"
      }
    },
    {
      "type": "Feature",
      "geometry": {
        "type": "Point",
        "coordinates": [
          -4.995843,
          41.087022,
          0
        ]
      },
      "properties": {
        "name": "Convento de San Agustín (Madrigal de las Altas Torres)",
        "description": "<br>Source: Wikipedia article <a href=\"http://es.wikipedia.org/wiki/Anexo:Bienes_de_interés_cultural_de_la_provincia_de_Ávila#Madrigal_de_las_Altas_Torres\">Anexo:Bienes de interés cultural de la provincia de Ávila</a>"
      }
    },
    {
      "type": "Feature",
      "geometry": {
        "type": "Point",
        "coordinates": [
          -4.996251,
          41.089578,
          0
        ]
      },
      "properties": {
        "name": "Casa Natal de Isabel la Católica",
        "description": "<br>Source: Wikipedia article <a href=\"http://es.wikipedia.org/wiki/Anexo:Bienes_de_interés_cultural_de_la_provincia_de_Ávila#Madrigal_de_las_Altas_Torres\">Anexo:Bienes de interés cultural de la provincia de Ávila</a>"
      }
    },
    {
      "type": "Feature",
      "geometry": {
        "type": "Point",
        "coordinates": [
          -4.997408,
          41.086858,
          0
        ]
      },
      "properties": {
        "name": "Hospital de la Purísima Concepción ''Hospital Real. Hospital de Juan II.''",
        "description": "<br>Source: Wikipedia article <a href=\"http://es.wikipedia.org/wiki/Anexo:Bienes_de_interés_cultural_de_la_provincia_de_Ávila#Madrigal_de_las_Altas_Torres\">Anexo:Bienes de interés cultural de la provincia de Ávila</a>"
      }
    },
    {
      "type": "Feature",
      "geometry": {
        "type": "Point",
        "coordinates": [
          -5.000358,
          41.087343,
          0
        ]
      },
      "properties": {
        "name": "Recinto Murado (Madrigal de las Altas Torres)",
        "description": "<br>Source: Wikipedia article <a href=\"http://es.wikipedia.org/wiki/Anexo:Bienes_de_interés_cultural_de_la_provincia_de_Ávila#Madrigal_de_las_Altas_Torres\">Anexo:Bienes de interés cultural de la provincia de Ávila</a>"
      }
    },
    {
      "type": "Feature",
      "geometry": {
        "type": "Point",
        "coordinates": [
          -4.997976,
          41.089818,
          0
        ]
      },
      "properties": {
        "name": "Iglesia de San Nicolás de Bari (Madrigal de las Altas Torres)",
        "description": "<br>Source: Wikipedia article <a href=\"http://es.wikipedia.org/wiki/Anexo:Bienes_de_interés_cultural_de_la_provincia_de_Ávila#Madrigal_de_las_Altas_Torres\">Anexo:Bienes de interés cultural de la provincia de Ávila</a>"
      }
    },
    {
      "type": "Feature",
      "geometry": {
        "type": "Point",
        "coordinates": [
          -4.999532,
          41.089454,
          0
        ]
      },
      "properties": {
        "name": "Iglesia de Santa María del Castillo (Madrigal de las Altas Torres)",
        "description": "<br>Source: Wikipedia article <a href=\"http://es.wikipedia.org/wiki/Anexo:Bienes_de_interés_cultural_de_la_provincia_de_Ávila#Madrigal_de_las_Altas_Torres\">Anexo:Bienes de interés cultural de la provincia de Ávila</a>"
      }
    },
    {
      "type": "Feature",
      "geometry": {
        "type": "Point",
        "coordinates": [
          -4.838868,
          40.534361,
          0
        ]
      },
      "properties": {
        "name": "Castillo de Aunqueospese",
        "description": "<br>Source: Wikipedia article <a href=\"http://es.wikipedia.org/wiki/Anexo:Bienes_de_interés_cultural_de_la_provincia_de_Ávila#Mironcillo\">Anexo:Bienes de interés cultural de la provincia de Ávila</a>"
      }
    },
    {
      "type": "Feature",
      "geometry": {
        "type": "Point",
        "coordinates": [
          -5.018331,
          40.257395,
          0
        ]
      },
      "properties": {
        "name": "Hospital de Peregrinos",
        "description": "<br>Source: Wikipedia article <a href=\"http://es.wikipedia.org/wiki/Anexo:Bienes_de_interés_cultural_de_la_provincia_de_Ávila#Mombeltr.C3.A1n\">Anexo:Bienes de interés cultural de la provincia de Ávila</a>"
      }
    },
    {
      "type": "Feature",
      "geometry": {
        "type": "Point",
        "coordinates": [
          -5.018372,
          40.259595,
          0
        ]
      },
      "properties": {
        "name": "Iglesia de San Juan Bautista (Mombeltrán)",
        "description": "<br>Source: Wikipedia article <a href=\"http://es.wikipedia.org/wiki/Anexo:Bienes_de_interés_cultural_de_la_provincia_de_Ávila#Mombeltr.C3.A1n\">Anexo:Bienes de interés cultural de la provincia de Ávila</a>"
      }
    },
    {
      "type": "Feature",
      "geometry": {
        "type": "Point",
        "coordinates": [
          -5.018232,
          40.257248,
          0
        ]
      },
      "properties": {
        "name": "Castillo de los Duques de Alburquerque",
        "description": "<br>Source: Wikipedia article <a href=\"http://es.wikipedia.org/wiki/Anexo:Bienes_de_interés_cultural_de_la_provincia_de_Ávila#Mombeltr.C3.A1n\">Anexo:Bienes de interés cultural de la provincia de Ávila</a>"
      }
    },
    {
      "type": "Feature",
      "geometry": {
        "type": "Point",
        "coordinates": [
          -4.859617,
          40.582836,
          0
        ]
      },
      "properties": {
        "name": "Yacimiento Pared de los Moros",
        "description": "<br>Source: Wikipedia article <a href=\"http://es.wikipedia.org/wiki/Anexo:Bienes_de_interés_cultural_de_la_provincia_de_Ávila#Niharra\">Anexo:Bienes de interés cultural de la provincia de Ávila</a>"
      }
    },
    {
      "type": "Feature",
      "geometry": {
        "type": "Point",
        "coordinates": [
          -4.784226,
          41.117442,
          0
        ]
      },
      "properties": {
        "name": "Iglesia Parroquial de San Juan Bautista",
        "description": "<br>Source: Wikipedia article <a href=\"http://es.wikipedia.org/wiki/Anexo:Bienes_de_interés_cultural_de_la_provincia_de_Ávila#Palacios_de_Goda\">Anexo:Bienes de interés cultural de la provincia de Ávila</a>"
      }
    },
    {
      "type": "Feature",
      "geometry": {
        "type": "Point",
        "coordinates": [
          -5.326594,
          40.462386,
          0
        ]
      },
      "properties": {
        "name": "Casa de Gabriel y Galán",
        "description": "<br>Source: Wikipedia article <a href=\"http://es.wikipedia.org/wiki/Anexo:Bienes_de_interés_cultural_de_la_provincia_de_Ávila#Piedrah.C3.ADta\">Anexo:Bienes de interés cultural de la provincia de Ávila</a>"
      }
    },
    {
      "type": "Feature",
      "geometry": {
        "type": "Point",
        "coordinates": [
          -5.327268,
          40.463425,
          0
        ]
      },
      "properties": {
        "name": "Conjunto Histórico Artístico de la Ciudad de Piedrahíta",
        "description": "<br>Source: Wikipedia article <a href=\"http://es.wikipedia.org/wiki/Anexo:Bienes_de_interés_cultural_de_la_provincia_de_Ávila#Piedrah.C3.ADta\">Anexo:Bienes de interés cultural de la provincia de Ávila</a>"
      }
    },
    {
      "type": "Feature",
      "geometry": {
        "type": "Point",
        "coordinates": [
          -5.325827,
          40.462215,
          0
        ]
      },
      "properties": {
        "name": "Palacio de los Duques de Alba",
        "description": "<br>Source: Wikipedia article <a href=\"http://es.wikipedia.org/wiki/Anexo:Bienes_de_interés_cultural_de_la_provincia_de_Ávila#Piedrah.C3.ADta\">Anexo:Bienes de interés cultural de la provincia de Ávila</a>"
      }
    },
    {
      "type": "Feature",
      "geometry": {
        "type": "Point",
        "coordinates": [
          -5.619832,
          40.305178,
          0
        ]
      },
      "properties": {
        "name": "Iglesia y Torre de Santiago Apóstol",
        "description": "<br>Source: Wikipedia article <a href=\"http://es.wikipedia.org/wiki/Anexo:Bienes_de_interés_cultural_de_la_provincia_de_Ávila#Puerto_Castilla\">Anexo:Bienes de interés cultural de la provincia de Ávila</a>"
      }
    },
    {
      "type": "Feature",
      "geometry": {
        "type": "Point",
        "coordinates": [
          -4.980252,
          40.274805,
          0
        ]
      },
      "properties": {
        "name": "Iglesia Parroquial de San Esteban del Valle",
        "description": "<br>Source: Wikipedia article <a href=\"http://es.wikipedia.org/wiki/Anexo:Bienes_de_interés_cultural_de_la_provincia_de_Ávila#San_Esteban_del_Valle\">Anexo:Bienes de interés cultural de la provincia de Ávila</a>"
      }
    },
    {
      "type": "Feature",
      "geometry": {
        "type": "Point",
        "coordinates": [
          -4.844339,
          40.831616,
          0
        ]
      },
      "properties": {
        "name": "Iglesia Parroquial de San Juan Bautista (San Juan de la Encinilla)",
        "description": "<br>Source: Wikipedia article <a href=\"http://es.wikipedia.org/wiki/Anexo:Bienes_de_interés_cultural_de_la_provincia_de_Ávila#San_Juan_de_la_Encinilla\">Anexo:Bienes de interés cultural de la provincia de Ávila</a>"
      }
    },
    {
      "type": "Feature",
      "geometry": {
        "type": "Point",
        "coordinates": [
          -5.043884,
          40.623694,
          0
        ]
      },
      "properties": {
        "name": "Ermita de la Virgen de las Fuentes",
        "description": "<br>Source: Wikipedia article <a href=\"http://es.wikipedia.org/wiki/Anexo:Bienes_de_interés_cultural_de_la_provincia_de_Ávila#San_Juan_del_Olmo\">Anexo:Bienes de interés cultural de la provincia de Ávila</a>"
      }
    },
    {
      "type": "Feature",
      "geometry": {
        "type": "Point",
        "coordinates": [
          -4.43100928,
          40.73668957,
          0
        ]
      },
      "properties": {
        "name": "Ermita de Nuestra Señora del Cubillo",
        "description": "<br>Source: Wikipedia article <a href=\"http://es.wikipedia.org/wiki/Anexo:Bienes_de_interés_cultural_de_la_provincia_de_Ávila#Santa_Mar.C3.ADa_del_Cubillo\">Anexo:Bienes de interés cultural de la provincia de Ávila</a>"
      }
    },
    {
      "type": "Feature",
      "geometry": {
        "type": "Point",
        "coordinates": [
          -4.885486,
          40.529659,
          0
        ]
      },
      "properties": {
        "name": "Despoblado de Ulaca",
        "description": "<br>Source: Wikipedia article <a href=\"http://es.wikipedia.org/wiki/Anexo:Bienes_de_interés_cultural_de_la_provincia_de_Ávila#Solosancho\">Anexo:Bienes de interés cultural de la provincia de Ávila</a>"
      }
    }
  ]
}